{"clients":{"573103794656":{"id":"573103794656@c.us","name":"Alexander","phone":"+573103794656","photoUrl":"https://pps.whatsapp.net/v/t61.24694-24/288886792_137762155536049_4167948859153702864_n.jpg?ccb=11-4&oh=01_AVy2Q4e9bMhtLPHY3t2jcFmHEl2bA3VYB6KmHqoR4Ewx2g&oe=62E4A805"}},"drivers":{"Z3GMDsXArButPWOnxEB7nnZsLpZu":{"created_at":1656376438,"docType":"CC","document":"1097391384","email":"devalexandrecr@gmail.com","enabled_at":1657469848,"id":"Z3GMDsXArButPWOnxEB7nnZsLpZu","name":"Alexander Camilo","phone":"3103794656","photoUrl":"http://localhost:9199/v0/b/gorda-driver.appspot.com/o/images%2Fdrivers%2Fprofile%2FZ3GMDsXArButPWOnxEB7nnZsLpZu%2Flogo.png?alt=media&token=673fdf4a-b94b-4044-affe-0c2e2a41d05b","vehicle":{"brand":"Kia","color":{"hex":"#FFD700","name":"gold"},"model":"Picanto ION","photoUrl":"http://localhost:9199/v0/b/gorda-driver.appspot.com/o/images%2Fdrivers%2Fvehicles%2FZ3GMDsXArButPWOnxEB7nnZsLpZu%2Fbackground.jpg?alt=media&token=dcf5f852-2ec4-4f20-9082-e93b7759b084","plate":"HEM201","soat_exp":1659243600,"tec_exp":1659243600}},"ZaTfQ2BPJfz60rbFbmgKcseZQCgu":{"created_at":1656710326,"docType":"CC","document":"1097391384","email":"driverdean@gmail.com","enabled_at":1656967980,"id":"ZaTfQ2BPJfz60rbFbmgKcseZQCgu","name":"Driver Dean2","phone":"3003000000","photoUrl":"http://localhost:9199/v0/b/gorda-driver.appspot.com/o/images%2Fdrivers%2Fprofile%2FZaTfQ2BPJfz60rbFbmgKcseZQCgu%2Fdefault_user.png?alt=media&token=032cbefa-f488-4887-a4bd-a7dfb18961b7","vehicle":{"brand":"Renault","model":"Logan","photoUrl":"http://localhost:9199/v0/b/gorda-driver.appspot.com/o/images%2Fdrivers%2Fvehicles%2FZaTfQ2BPJfz60rbFbmgKcseZQCgu%2Flogo.png?alt=media&token=62223dd4-4c25-4a05-b3a5-c11c068c3ee0","plate":"CAT123"}}},"online_drivers":{"Z3GMDsXArButPWOnxEB7nnZsLpZu":{"id":"Z3GMDsXArButPWOnxEB7nnZsLpZu","location":{"lat":2.4315383,"lng":-76.601635}}},"places":{"-N6677fY7pwiRt5FBh2w":{"lat":2.449119,"lng":-76.604964,"name":"Loma Linda"},"-N6677fZmplrPZaMz5TY":{"lat":2.457808,"lng":-76.606585,"name":"La Cabaña"},"-N6677f_Pn5VeUuK1Akx":{"lat":2.453712,"lng":-76.604456,"name":"Santa Clara"},"-N6677faBgM0AAStGgHo":{"lat":2.449946,"lng":-76.606492,"name":"Champagnat"},"-N6677fbI83W3v0GPqJU":{"lat":2.449946,"lng":-76.606492,"name":"La Playa"},"-N6677fdHtV3YhsLVuIS":{"lat":2.460236,"lng":-76.598396,"name":"Campamento"},"-N6677fdHtV3YhsLVuIT":{"lat":2.463037,"lng":-76.595761,"name":"Puerta De Hierro"},"-N6677fezrD03OsxVaN4":{"lat":2.4557072,"lng":-76.5996534,"name":"Pubenza Catay"},"-N6677fgb4L-PeOZb82k":{"lat":2.456986,"lng":-76.598693,"name":"Antonio Nariño"},"-N6677fhr6fmT2Wgv9iH":{"lat":2.449967,"lng":-76.610308,"name":"Villa Paula"},"-N6677fjTEJ_XW94-1Sw":{"lat":2.453884,"lng":-76.598593,"name":"El Recuerdo"},"-N6677fliVsKEbLrbduM":{"lat":2.450628,"lng":-76.604758,"name":"Belalcazar"},"-N6677fliVsKEbLrbduN":{"lat":2.449558,"lng":-76.606678,"name":"Bloques De Pubenza"},"-N6677fmR-Lc-Pc46NB9":{"lat":2.461799,"lng":-76.601465,"name":"Los Laureles"},"-N6677fnctTdhfx40VkQ":{"lat":2.447399,"lng":-76.608912,"name":"Los Rosales, Conjunto Residencial"},"-N6677fnctTdhfx40VkR":{"lat":2.453156,"lng":-76.606156,"name":"Alcalá"},"-N6677foP9_KBbLzux1A":{"lat":2.463349,"lng":-76.596747,"name":"Puerta Del Sol"},"-N6677foP9_KBbLzux1B":{"lat":2.49032,"lng":-76.560756,"name":"Pino Pardo"},"-N6677foP9_KBbLzux1C":{"lat":2.475633,"lng":-76.581621,"name":"Balcón Del Norte"},"-N6677foP9_KBbLzux1D":{"lat":2.4902065,"lng":-76.5672549,"name":"Maria Paz"},"-N6677fpHm72RgN8P2DA":{"lat":2.434242,"lng":-76.619905,"name":"Zuldemaida"},"-N6677fpHm72RgN8P2DB":{"lat":2.50736,"lng":-76.618705,"name":"Morinda"},"-N6677fqDvQbdLmrKfEa":{"lat":2.475695,"lng":-76.581017,"name":"El Tablazo"},"-N6677fqDvQbdLmrKfEb":{"lat":2.4736329,"lng":-76.5612422,"name":"La Florida"},"-N6677fqDvQbdLmrKfEc":{"lat":2.489562,"lng":-76.563096,"name":"La Aldea"},"-N6677frXDqCjOxFJ5Lz":{"lat":2.474307,"lng":-76.555225,"name":"Villa Del Norte"},"-N6677frXDqCjOxFJ5M-":{"lat":2.48978,"lng":-76.568919,"name":"Bello Horizonte"},"-N6677frXDqCjOxFJ5M0":{"lat":2.47775,"lng":-76.576444,"name":"Rio Vista"},"-N6677frXDqCjOxFJ5M1":{"lat":2.482711,"lng":-76.57084,"name":"La Cruz Roja"},"-N6677fskVg2NPICW2hV":{"lat":2.481345,"lng":-76.572365,"name":"El Bambú"},"-N6677fskVg2NPICW2hW":{"lat":2.482743,"lng":-76.575724,"name":"Bella Vista"},"-N6677ftXYNo_U9PimZk":{"lat":2.486657,"lng":-76.571723,"name":"San Ignacio"},"-N6677ftXYNo_U9PimZl":{"lat":2.4865777,"lng":-76.5792738,"name":"El Uvo"},"-N6677ftXYNo_U9PimZm":{"lat":2.488541,"lng":-76.576349,"name":"La Arboleda"},"-N6677fu_ivqH1sPhgcV":{"lat":2.491501,"lng":-76.573464,"name":"La Esperanza"},"-N6677fu_ivqH1sPhgcW":{"lat":2.476911,"lng":-76.579746,"name":"Canterbury"},"-N6677fu_ivqH1sPhgcX":{"lat":2.4728132,"lng":-76.5773777,"name":"Guayacanes"},"-N6677fvQDE2BleRFA6_":{"lat":2.488641,"lng":-76.579934,"name":"Villa Claudia"},"-N6677fvQDE2BleRFA6a":{"lat":2.474607,"lng":-76.556942,"name":"Matamoros"},"-N6677fvQDE2BleRFA6b":{"lat":2.472939,"lng":-76.575147,"name":"San Fernando Norte"},"-N6677fvQDE2BleRFA6c":{"lat":2.4902869,"lng":-76.5857289,"name":"Pinares"},"-N6677fwQssioJBv7Zof":{"lat":2.458171,"lng":-76.595889,"name":"Los Ángeles"},"-N6677fwQssioJBv7Zog":{"lat":2.448763,"lng":-76.603798,"name":"Bolivar"},"-N6677fwQssioJBv7Zoh":{"lat":2.455063,"lng":-76.594718,"name":"Ciudad Jardín"},"-N6677fxpcvTtx5T41p6":{"lat":2.455596,"lng":-76.590392,"name":"Sotará"},"-N6677fxpcvTtx5T41p7":{"lat":2.456236,"lng":-76.591607,"name":"Los Hoyos"},"-N6677fxpcvTtx5T41p8":{"lat":2.45872,"lng":-76.586899,"name":"Parque Yambitará"},"-N6677fyMxZQ081Ng5De":{"lat":2.461303,"lng":-76.583189,"name":"Villa Mercedes"},"-N6677fyMxZQ081Ng5Df":{"lat":2.454135,"lng":-76.585323,"name":"Yanaconas"},"-N6677fyMxZQ081Ng5Dg":{"lat":2.465121,"lng":-76.580385,"name":"La Ximena"},"-N6677fzXvZAi76uf7Py":{"lat":2.460126,"lng":-76.590374,"name":"Palace"},"-N6677fzXvZAi76uf7Pz":{"lat":2.416453,"lng":-76.583394,"name":"Pueblillo"},"-N6677fzXvZAi76uf7Q-":{"lat":2.467845,"lng":-76.580202,"name":"Las Tres Margaritas"},"-N6677g-iHlNsFMVz-hH":{"lat":2.458103,"lng":-76.593029,"name":"Torres Del Rio"},"-N6677g-iHlNsFMVz-hI":{"lat":2.459496,"lng":-76.5871526,"name":"Galicia"},"-N6677g0Y-D8165hpy7y":{"lat":2.451365,"lng":-76.593614,"name":"Rincon De La Estancia"},"-N6677g10yNF5jqJPl49":{"lat":2.4547044,"lng":-76.5866979,"name":"Madres Solteras (Yanaconas)"},"-N6677g10yNF5jqJPl4A":{"lat":2.460247,"lng":-76.582088,"name":"Aida Lucia"},"-N6677g2rbTyiVfHu9jj":{"lat":2.454722,"lng":-76.595441,"name":"Altos Del Jardín"},"-N6677g2rbTyiVfHu9jk":{"lat":2.450527,"lng":-76.597348,"name":"La Estancia"},"-N6677g2rbTyiVfHu9jl":{"lat":2.503337,"lng":-76.59786,"name":"Moravia"},"-N6677g3aercGiFoYSDe":{"lat":2.460353,"lng":-76.586473,"name":"Alicante I Y Ii"},"-N6677g3aercGiFoYSDf":{"lat":2.456414,"lng":-76.584006,"name":"Acacias"},"-N6677g4AZdk4wgrEuy8":{"lat":2.457766,"lng":-76.59253,"name":"Rincon Del Rio"},"-N6677gCjV5kJcju3UWw":{"lat":2.44331,"lng":-76.611173,"name":"Provitec Ii Etapa"},"-N6677gCjV5kJcju3UWx":{"lat":2.449918,"lng":-76.593751,"name":"Bosques De Pomona"},"-N6677gDR9a08saRiibU":{"lat":2.444823,"lng":-76.602628,"name":"Vásquez Cobo"},"-N6677gDR9a08saRiibV":{"lat":2.444831,"lng":-76.605938,"name":"El Prado"},"-N6677gDR9a08saRiibW":{"lat":2.440634,"lng":-76.60823,"name":"Centro"},"-N6677gEGVSaQ2olyw1O":{"lat":2.436094,"lng":-76.615911,"name":"San Rafael Viejo"},"-N6677gFKxeNXXLt4FeJ":{"lat":2.518623,"lng":-76.636215,"name":"El Refugio"},"-N6677gFKxeNXXLt4FeK":{"lat":2.4475448,"lng":-76.5981243,"name":"Liceo"},"-N6677gFKxeNXXLt4FeL":{"lat":2.441249,"lng":-76.599481,"name":"La Pamba"},"-N6677gGYZvJKLQ9i3nZ":{"lat":2.43942,"lng":-76.601952,"name":"Loma De Cartagena"},"-N6677gGYZvJKLQ9i3n_":{"lat":2.435657,"lng":-76.601001,"name":"Fucha"},"-N6677gGYZvJKLQ9i3na":{"lat":2.438395,"lng":-76.605141,"name":"El Empedrado"},"-N6677gHNtCeZVnCe8wi":{"lat":2.423825,"lng":-76.617193,"name":"San Camilo"},"-N6677gHNtCeZVnCe8wj":{"lat":2.433134,"lng":-76.604531,"name":"Argentina"},"-N6677gHNtCeZVnCe8wk":{"lat":2.45275,"lng":-76.635498,"name":"Colombia II Etapa"},"-N6677gHNtCeZVnCe8wl":{"lat":2.4423,"lng":-76.612196,"name":"Valencia"},"-N6677gITpG4cQdQo16L":{"lat":2.448856,"lng":-76.59529,"name":"Pomona"},"-N6677gITpG4cQdQo16M":{"lat":2.441804,"lng":-76.606037,"name":"Parque Caldas"},"-N6677gITpG4cQdQo16N":{"lat":2.437501,"lng":-76.602314,"name":"Santa Inés"},"-N6677gJsvzDH6aoWl1S":{"lat":2.434406,"lng":-76.602004,"name":"Molino De Moscopan"},"-N6677gJsvzDH6aoWl1T":{"lat":2.438444,"lng":-76.614491,"name":"Las Américas"},"-N6677gJsvzDH6aoWl1U":{"lat":2.445793,"lng":-76.612165,"name":"Cadillal"},"-N6677gKL3LB4AtxwYZ3":{"lat":2.423279,"lng":-76.607276,"name":"Plateado"},"-N6677gKL3LB4AtxwYZ4":{"lat":2.453047,"lng":-76.606275,"name":"Alameda"},"-N6677gKL3LB4AtxwYZ5":{"lat":2.436548,"lng":-76.616921,"name":"Colgate Palmolive"},"-N6677gKL3LB4AtxwYZ6":{"lat":2.430515,"lng":-76.598472,"name":"Los Andes"},"-N6677gL99eq_vf2Jf__":{"lat":2.431784,"lng":-76.602666,"name":"La Floresta"},"-N6677gL99eq_vf2Jf_a":{"lat":2.431132,"lng":-76.605103,"name":"Santa Monica"},"-N6677gL99eq_vf2Jf_b":{"lat":2.430041,"lng":-76.602676,"name":"Sauces"},"-N6677gMiftQHyQlCfUc":{"lat":2.42999,"lng":-76.600276,"name":"Maria Oriente"},"-N6677gMiftQHyQlCfUd":{"lat":2.432472,"lng":-76.600294,"name":"El Portal De Las Ferias"},"-N6677gN-91hinXtSJDU":{"lat":2.43168,"lng":-76.60179,"name":"El Berlin"},"-N6677gN-91hinXtSJDV":{"lat":2.432619,"lng":-76.599541,"name":"El Lago"},"-N6677gN-91hinXtSJDW":{"lat":2.438253,"lng":-76.623357,"name":"Los Tejares"},"-N6677gN-91hinXtSJDX":{"lat":2.433367,"lng":-76.616481,"name":"Nueva Granada"},"-N6677gOu6l1488d8eaO":{"lat":2.443889,"lng":-76.633435,"name":"La Colina"},"-N6677gOu6l1488d8eaP":{"lat":2.429218,"lng":-76.611207,"name":"Nuevo Japon"},"-N6677gOu6l1488d8eaQ":{"lat":2.428292,"lng":-76.610584,"name":"La Gran Victoria"},"-N6677gOu6l1488d8eaR":{"lat":2.435846,"lng":-76.622484,"name":"Versalles"},"-N6677gPZXWI6WRCWddr":{"lat":2.434974,"lng":-76.613279,"name":"Barrio El Limonar"},"-N6677gPZXWI6WRCWdds":{"lat":2.474991,"lng":-76.557129,"name":"La Paz"},"-N6677gPZXWI6WRCWddt":{"lat":2.437863,"lng":-76.609915,"name":"Gabriel Garcia Marquez"},"-N6677gQwRHxolzkSvK_":{"lat":2.439541,"lng":-76.603649,"name":"El Boqueron"},"-N6677gQwRHxolzkSvKa":{"lat":2.425404,"lng":-76.615228,"name":"Jorge Eliecer Gaitán"},"-N6677gQwRHxolzkSvKb":{"lat":2.43123,"lng":-76.611973,"name":"Sindical I Y Ii Etapa"},"-N6677gQwRHxolzkSvKc":{"lat":2.43316,"lng":-76.608255,"name":"Alfonso López"},"-N6677gR87Xc2wAu--nB":{"lat":2.4409587,"lng":-76.6234399,"name":"Manuela Beltrán"},"-N6677gR87Xc2wAu--nC":{"lat":2.433463,"lng":-76.610823,"name":"Primero De Mayo"},"-N6677gR87Xc2wAu--nD":{"lat":2.430358,"lng":-76.609422,"name":"Los Comuneros"},"-N6677gSBudsVJi7b7zz":{"lat":2.428317,"lng":-76.614555,"name":"Loma De La Virgen"},"-N6677gSBudsVJi7b8--":{"lat":2.458605,"lng":-76.636213,"name":"Los Naranjos (sur)"},"-N6677gSBudsVJi7b8-0":{"lat":2.439016,"lng":-76.619928,"name":"Santa Fe"},"-N6677gTg33bpbGBOFce":{"lat":2.436068,"lng":-76.620638,"name":"La Ladera"},"-N6677gTg33bpbGBOFcf":{"lat":2.449228,"lng":-76.633331,"name":"Los Campos"},"-N6677gTg33bpbGBOFcg":{"lat":2.443573,"lng":-76.615089,"name":"31 De Marzo"},"-N6677gUVIbAnoEVRYvu":{"lat":2.444196,"lng":-76.637987,"name":"El Mirador"},"-N6677gUVIbAnoEVRYvv":{"lat":2.453402,"lng":-76.632285,"name":"Solidaridad"},"-N6677gUVIbAnoEVRYvw":{"lat":2.4400723,"lng":-76.627969,"name":"Chapinero"},"-N6677gVpLq6kIDNR2hN":{"lat":2.438495,"lng":-76.623072,"name":"Retiro Alto"},"-N6677gVpLq6kIDNR2hO":{"lat":2.444434,"lng":-76.631113,"name":"Libertad"},"-N6677gWFT7GosAxmCdR":{"lat":2.444381,"lng":-76.626916,"name":"La Conquista"},"-N6677gX5jrvctwKBkAb":{"lat":2.445837,"lng":-76.631565,"name":"Las Brisas"},"-N6677gX5jrvctwKBkAc":{"lat":1,"lng":1,"name":"Santa Librada"},"-N6677gX5jrvctwKBkAd":{"lat":2.450337,"lng":-76.621458,"name":"Camilo Torres"},"-N6677gX5jrvctwKBkAe":{"lat":2.447439,"lng":-76.623276,"name":"Santa Helena"},"-N6677gYWN479dzGXARL":{"lat":2.445304,"lng":-76.618707,"name":"Llano Largo"},"-N6677gYWN479dzGXARM":{"lat":2.444607,"lng":-76.620358,"name":"Jose Maria Obando"},"-N6677gYWN479dzGXARN":{"lat":2.442223,"lng":-76.619067,"name":"Minuto de Dios (Esmeralda)"},"-N6677gZss1qG64l6V7n":{"lat":2.442758,"lng":-76.619545,"name":"Guayabal"},"-N6677gZss1qG64l6V7o":{"lat":2.444806,"lng":-76.615068,"name":"La Esmeralda"},"-N6677gZss1qG64l6V7p":{"lat":2.447833,"lng":-76.616818,"name":"Pandiguando"},"-N6677gZss1qG64l6V7q":{"lat":2.453852,"lng":-76.623251,"name":"La Isla I Y Ii"},"-N6677g_jBJP4DvGZLrw":{"lat":2.425308,"lng":-76.607905,"name":"El Triunfo"},"-N6677g_jBJP4DvGZLrx":{"lat":2.447245,"lng":-76.620567,"name":"Perpetuo Socorro"},"-N6677g_jBJP4DvGZLry":{"lat":2.46147,"lng":-76.645991,"name":"Lomas De Granada"},"-N6677gahWlz9ASEy95o":{"lat":2.46024,"lng":-76.633886,"name":"La Capitana"},"-N6677gahWlz9ASEy95p":{"lat":2.446872,"lng":-76.627791,"name":"San Jose"},"-N6677gahWlz9ASEy95q":{"lat":2.450547,"lng":-76.626215,"name":"La Sombrilla"},"-N6677gahWlz9ASEy95r":{"lat":2.452504,"lng":-76.628843,"name":"Carlos Primero"},"-N6677gbIC7DJC38c0Se":{"lat":2.456803,"lng":-76.632622,"name":"Hospital Maria Occidente"},"-N6677gbIC7DJC38c0Sf":{"lat":2.434921,"lng":-76.613277,"name":"El Limonar"},"-N7DMXTFbXjxVcySguTC":{"lat":2.4425591156184856,"lng":-76.6100263595581,"name":"Iglesia San Francisco"},"-N7DcoEe-v17DIRhxkFq":{"lat":2.447211798463205,"lng":-76.6083142510975,"name":"El Modelo"},"-N7Dd3lbO0fh0S_t3re-":{"lat":2.4391786242859217,"lng":-76.62194296990366,"name":"El Pajonal"},"-N7DdWSCHQRjNlq7_SJ_":{"lat":2.468390650173435,"lng":-76.5931255383104,"name":"CampoBello"},"-N7DgKCeQtnWo9X06v9E":{"lat":2.4601798703151463,"lng":-76.60063414450822,"name":"La Villa"}},"services":{"-N7DuEh7_28R049pocWR":{"client_id":"573103794656@c.us","created_at":1658107525,"id":"-N7DuEh7_28R049pocWR","name":"Alexander","phone":"+573103794656","start_loc":{"key":"-N6677gCjV5kJcju3UWx","lat":2.449918,"lng":-76.593751,"name":"Bosques De Pomona"},"status":"canceled"},"-N7DvlKFT5w76jdnGvnP":{"a_go":"","client_id":"573103794656@c.us","created_at":1658107925,"driver_id":"Z3GMDsXArButPWOnxEB7nnZsLpZu","id":"-N7DvlKFT5w76jdnGvnP","name":"Alexander","phone":"+573103794656","start_loc":{"lat":2.42999,"lng":-76.600276,"name":"Maria Oriente"},"status":"canceled"},"-N7DwkGsAZLMZAEJzlHA":{"a_go":"","client_id":"573103794656@c.us","created_at":1658108183,"id":"-N7DwkGsAZLMZAEJzlHA","name":"Alexander","phone":"+573103794656","start_loc":{"lat":2.4902065,"lng":-76.5672549,"name":"Maria Paz"},"status":"canceled"},"-N7Dww57XM45H-BLNBrp":{"a_go":"","client_id":"573103794656@c.us","created_at":1658108232,"id":"-N7Dww57XM45H-BLNBrp","name":"Alexander","phone":"+573103794656","start_loc":{"lat":2.42999,"lng":-76.600276,"name":"Maria Oriente"},"status":"canceled"},"-N7DxKvLKta1zuzf9tv5":{"a_go":"","client_id":"573103794656@c.us","created_at":1658108337,"id":"-N7DxKvLKta1zuzf9tv5","name":"Alexander","phone":"+573103794656","start_loc":{"lat":2.444607,"lng":-76.620358,"name":"Jose Maria Obando"},"status":"canceled"},"-N7Dy4QDlmwrWtmKZauW":{"a_go":"","client_id":"573103794656@c.us","comment":"aaaaaaaaaaaaaaaaaaaaaaaaaaaaaaaaaaaaaaaaaaaaaaaaaaaaaaaaaaa","created_at":1658108532,"driver_id":"Z3GMDsXArButPWOnxEB7nnZsLpZu","id":"-N7Dy4QDlmwrWtmKZauW","name":"Alexander","phone":"+573103794656","start_loc":{"lat":2.42999,"lng":-76.600276,"name":"Maria Oriente"},"status":"terminated"},"-N7LqTJYH329VWhVVgyh":{"a_go":"22m:3s","client_id":"573103794656@c.us","created_at":1658240755,"driver_id":"Z3GMDsXArButPWOnxEB7nnZsLpZu","id":"-N7LqTJYH329VWhVVgyh","name":"Alexander","phone":"+573103794656","start_loc":{"key":"-N6677gN-91hinXtSJDU","lat":2.43168,"lng":-76.60179,"name":"El Berlin"},"status":"in_progress"}},"sessions":{"-N7DuAnl47HYn3vKxmiO":{"chat_id":"573103794656@c.us","created_at":1658107509999,"id":"-N7DuAnl47HYn3vKxmiO","place":{"key":"-N6677gCjV5kJcju3UWx","lat":2.449918,"lng":-76.593751,"name":"Bosques De Pomona"},"placeOptions":[{"option":1,"placeId":"-N6677gCjV5kJcju3UWx"},{"option":2,"placeId":"-N6677gITpG4cQdQo16L"}],"service_id":"-N7DuEh7_28R049pocWR","status":"COMPLETED"},"-N7DvnXKG4qFQ_jFmGOL":{"chat_id":"573103794656@c.us","created_at":1658107934868,"id":"-N7DvnXKG4qFQ_jFmGOL","service_id":"-N7DvlKFT5w76jdnGvnP","status":"COMPLETED"},"-N7DwkH84yUd4KWHB93F":{"chat_id":"573103794656@c.us","created_at":1658108183688,"id":"-N7DwkH84yUd4KWHB93F","service_id":"-N7DwkGsAZLMZAEJzlHA","status":"COMPLETED"},"-N7DxKvi16IfgnBMjIW2":{"chat_id":"573103794656@c.us","created_at":1658108337896,"id":"-N7DxKvi16IfgnBMjIW2","service_id":"-N7DxKvLKta1zuzf9tv5","status":"COMPLETED"},"-N7E-G5rxpiFs1wBJ9wd":{"chat_id":"573103794656@c.us","created_at":1658109104568,"id":"-N7E-G5rxpiFs1wBJ9wd","service_id":"-N7DxKvLKta1zuzf9tv5","status":"COMPLETED"},"-N7LqRRrVAdEJ0zCqoUU":{"chat_id":"573103794656@c.us","created_at":1658240747386,"id":"-N7LqRRrVAdEJ0zCqoUU","place":{"key":"-N6677gN-91hinXtSJDU","lat":2.43168,"lng":-76.60179,"name":"El Berlin"},"service_id":"-N7LqTJYH329VWhVVgyh","status":"SERVICE_IN_PROGRESS"}},"users":{"Wet1cJj3LtQfmO8L02INpLFfWaod":{"created_at":1222222222,"email":"admin@admin.com","enabled_at":1657252660,"id":"Wet1cJj3LtQfmO8L02INpLFfWaod","name":"Administrator","phone":"310310310310","photoUrl":"http://localhost:9199/v0/b/gorda-driver.appspot.com/o/images%2Fadmin%2Fprofile%2FWet1cJj3LtQfmO8L02INpLFfWaod%2F219983.png?alt=media&token=8094c620-76ea-45cb-8ba3-ef775f15b3c7","roles":{"admin":true,"operator":false}}}}